timestamp,category,lat,lon,alt,roll,pitch,yaw,vx,vy,vz,wx,wy,wz,esc1_err,esc2_err,esc3_err,esc4_err,esc5_err,esc6_err,esc1_rpm,esc2_rpm,esc3_rpm,esc4_rpm,esc5_rpm,esc6_rpm,esc1_pct,esc2_pct,esc3_pct,esc4_pct,esc5_pct,esc6_pct,gcs_cmd_idx,gcs_mission,gcs_val,gcs_fail,ftb_roll,ftb_pitch,ftb_yaw,ftb_col,ftb_switch,ftb_fail,laser_radar,avoidance,guide
2026-01-20 21:53:29.660,fcs_pwms,8,1477.0588385863584,1429.3570807726276,1462.6424573081754,1479.6677370572704,1567.5019318920297,1493.1144434737137,1597.3482174077521,1402.4547693186184
2026-01-20 21:53:29.682,fcs_states,0.000000,0.000000,0.00,0.00,0.000.00,0.00,0.000.00,0.00,0.000.00
2026-01-20 21:53:29.703,fcs_datactrl,0.0953,1.0000,0.80000.0500
2026-01-20 21:53:29.725,avoiflag,0,00
2026-01-20 21:53:29.746,fcs_datafutaba,0,0,0,000
2026-01-20 21:53:29.767,fcs_line_aim2ab
2026-01-20 21:53:29.788,fcs_line_ab
2026-01-20 21:53:29.809,fcs_param
2026-01-20 21:53:29.831,fcs_esc,0,0,0,0,00,0,0,0,0,00,0,0,0,0,00
2026-01-20 21:53:29.952,fcs_pwms,8,1508.502351099776,1423.5158751847098,1540.0696671343364,1487.68302822708,1584.410498266009,1493.6534002879544,1468.0988473442517,1590.662540698961
2026-01-20 21:53:29.975,fcs_states,0.000000,0.000000,0.00,0.00,0.000.00,0.00,0.000.00,0.00,0.000.00
2026-01-20 21:53:29.996,fcs_datactrl,0.1064,1.0000,0.80000.0500
2026-01-20 21:53:30.016,avoiflag,0,00
2026-01-20 21:53:30.038,fcs_datafutaba,0,0,0,000
2026-01-20 21:53:30.059,fcs_line_aim2ab
2026-01-20 21:53:30.083,fcs_line_ab
2026-01-20 21:53:30.105,fcs_param
2026-01-20 21:53:30.126,fcs_esc,0,0,0,0,00,0,0,0,0,00,0,0,0,0,00
2026-01-20 21:53:30.248,fcs_pwms,8,1546.0651734833987,1518.5254497159754,1555.9227492337461,1555.8152921787207,1475.5034932525818,1452.2466164768846,1505.8361987024668,1404.9795854158485
2026-01-20 21:53:30.270,fcs_states,0.000000,0.000000,0.00,0.00,0.000.00,0.00,0.000.00,0.00,0.000.00
2026-01-20 21:53:30.291,fcs_datactrl,0.1004,1.0000,0.80000.0500
2026-01-20 21:53:30.311,avoiflag,0,00
2026-01-20 21:53:30.333,fcs_datafutaba,0,0,0,000
2026-01-20 21:53:30.354,fcs_line_aim2ab
2026-01-20 21:53:30.377,fcs_line_ab
2026-01-20 21:53:30.398,fcs_param
2026-01-20 21:53:30.417,fcs_esc,0,0,0,0,00,0,0,0,0,00,0,0,0,0,00
2026-01-20 21:53:30.540,fcs_pwms,8,1408.2733998063902,1541.7005851320666,1518.8411917189658,1419.8219399309708,1568.1346648339786,1541.9868872089755,1554.4929419808625,1436.2710375796792
2026-01-20 21:53:30.560,fcs_states,0.000000,0.000000,0.00,0.00,0.000.00,0.00,0.000.00,0.00,0.000.00
2026-01-20 21:53:30.585,fcs_datactrl,0.1093,1.0000,0.80000.0500
2026-01-20 21:53:30.602,avoiflag,0,00
2026-01-20 21:53:30.625,fcs_datafutaba,0,0,0,000
2026-01-20 21:53:30.645,fcs_line_aim2ab
2026-01-20 21:53:30.666,fcs_line_ab
2026-01-20 21:53:30.688,fcs_param
2026-01-20 21:53:30.710,fcs_esc,0,0,0,0,00,0,0,0,0,00,0,0,0,0,00
2026-01-20 21:53:30.832,fcs_pwms,8,1544.097857513419,1440.295250790592,1436.6413909537653,1511.3415234514541,1503.6581517962636,1418.760075637793,1520.98711910352,1531.735344815174
2026-01-20 21:53:30.856,fcs_states,0.000000,0.000000,0.00,0.00,0.000.00,0.00,0.000.00,0.00,0.000.00
2026-01-20 21:53:30.878,fcs_datactrl,0.0937,1.0000,0.80000.0500
2026-01-20 21:53:30.899,avoiflag,0,00
2026-01-20 21:53:30.921,fcs_datafutaba,0,0,0,000
2026-01-20 21:53:30.943,fcs_line_aim2ab
2026-01-20 21:53:30.964,fcs_line_ab
2026-01-20 21:53:30.987,fcs_param
2026-01-20 21:53:31.008,fcs_esc,0,0,0,0,00,0,0,0,0,00,0,0,0,0,00
2026-01-20 21:53:31.130,fcs_pwms,8,1565.2817021305837,1544.2767473744257,1468.7109725878158,1484.0652985007803,1407.831889351166,1574.343434687574,1421.6534016981866,1512.1750879031135
2026-01-20 21:53:31.151,fcs_states,0.000000,0.000000,0.00,0.00,0.000.00,0.00,0.000.00,0.00,0.000.00
2026-01-20 21:53:31.173,fcs_datactrl,0.0999,1.0000,0.80000.0500
2026-01-20 21:53:31.194,avoiflag,0,00
2026-01-20 21:53:31.215,fcs_datafutaba,0,0,0,000
2026-01-20 21:53:31.237,fcs_line_aim2ab
2026-01-20 21:53:31.258,fcs_line_ab
2026-01-20 21:53:31.281,fcs_param
2026-01-20 21:53:31.304,fcs_esc,0,0,0,0,00,0,0,0,0,00,0,0,0,0,00
2026-01-20 21:53:31.422,fcs_pwms,8,1589.849612696661,1585.62900434206,1474.4866986699383,1584.0224132852622,1549.5975377048305,1451.9541121916207,1596.9369258421568,1585.2851145536297
2026-01-20 21:53:31.446,fcs_states,0.000000,0.000000,0.00,0.00,0.000.00,0.00,0.000.00,0.00,0.000.00
2026-01-20 21:53:31.467,fcs_datactrl,0.1019,1.0000,0.80000.0500
2026-01-20 21:53:31.489,avoiflag,0,00
2026-01-20 21:53:31.511,fcs_datafutaba,0,0,0,000
2026-01-20 21:53:31.531,fcs_line_aim2ab
2026-01-20 21:53:31.553,fcs_line_ab
2026-01-20 21:53:31.574,fcs_param
2026-01-20 21:53:31.596,fcs_esc,0,0,0,0,00,0,0,0,0,00,0,0,0,0,00
2026-01-20 21:53:31.717,fcs_pwms,8,1461.5056290483512,1481.6835674324968,1536.9033768641448,1522.426420458485,1570.520941718966,1555.4389277965022,1570.0102632338308,1573.114213119217
2026-01-20 21:53:31.738,fcs_states,0.000000,0.000000,0.00,0.00,0.000.00,0.00,0.000.00,0.00,0.000.00
2026-01-20 21:53:31.759,fcs_datactrl,0.0926,1.0000,0.80000.0500
2026-01-20 21:53:31.780,avoiflag,0,00
2026-01-20 21:53:31.801,fcs_datafutaba,0,0,0,000
2026-01-20 21:53:31.821,fcs_line_aim2ab
2026-01-20 21:53:31.844,fcs_line_ab
2026-01-20 21:53:31.865,fcs_param
2026-01-20 21:53:31.886,fcs_esc,0,0,0,0,00,0,0,0,0,00,0,0,0,0,00
2026-01-20 21:53:32.008,fcs_pwms,8,1416.384067461174,1495.8362951349736,1569.0036469955999,1526.0317896777017,1445.0684671707634,1539.0534547878774,1538.5857413051256,1489.542504669827
2026-01-20 21:53:32.029,fcs_states,0.000000,0.000000,0.00,0.00,0.000.00,0.00,0.000.00,0.00,0.000.00
2026-01-20 21:53:32.052,fcs_datactrl,0.0973,1.0000,0.80000.0500
2026-01-20 21:53:32.073,avoiflag,0,00
2026-01-20 21:53:32.096,fcs_datafutaba,0,0,0,000
2026-01-20 21:53:32.115,fcs_line_aim2ab
2026-01-20 21:53:32.139,fcs_line_ab
2026-01-20 21:53:32.161,fcs_param
2026-01-20 21:53:32.184,fcs_esc,0,0,0,0,00,0,0,0,0,00,0,0,0,0,00
2026-01-20 21:53:32.302,fcs_pwms,8,1549.1768991977508,1547.945195777092,1405.4455316502226,1482.2347701254228,1431.917583652433,1575.7464455290256,1463.507098057378,1592.3428509928267
2026-01-20 21:53:32.324,fcs_states,0.000000,0.000000,0.00,0.00,0.000.00,0.00,0.000.00,0.00,0.000.00
2026-01-20 21:53:32.348,fcs_datactrl,0.1042,1.0000,0.80000.0500
2026-01-20 21:53:32.366,avoiflag,0,00
2026-01-20 21:53:32.389,fcs_datafutaba,0,0,0,000
2026-01-20 21:53:32.411,fcs_line_aim2ab
2026-01-20 21:53:32.432,fcs_line_ab
2026-01-20 21:53:32.452,fcs_param
2026-01-20 21:53:32.474,fcs_esc,0,0,0,0,00,0,0,0,0,00,0,0,0,0,00
2026-01-20 21:53:32.596,fcs_pwms,8,1414.3175975415904,1578.312096517051,1537.421797521238,1544.0307822015345,1551.113724238448,1463.7681732483616,1423.7687636506896,1520.1298419320583
2026-01-20 21:53:32.618,fcs_states,0.000000,0.000000,0.00,0.00,0.000.00,0.00,0.000.00,0.00,0.000.00
2026-01-20 21:53:32.638,fcs_datactrl,0.1067,1.0000,0.80000.0500
2026-01-20 21:53:32.660,avoiflag,0,00
2026-01-20 21:53:32.682,fcs_datafutaba,0,0,0,000
2026-01-20 21:53:32.704,fcs_line_aim2ab
2026-01-20 21:53:32.726,fcs_line_ab
2026-01-20 21:53:32.746,fcs_param
2026-01-20 21:53:32.767,fcs_esc,0,0,0,0,00,0,0,0,0,00,0,0,0,0,00
2026-01-20 21:53:32.889,fcs_pwms,8,1411.9642806144263,1458.800174024121,1495.5010180956417,1533.5313259162697,1517.6915197317508,1465.0113874916576,1599.0713746673707,1515.2029941695537
2026-01-20 21:53:32.910,fcs_states,0.000000,0.000000,0.00,0.00,0.000.00,0.00,0.000.00,0.00,0.000.00
2026-01-20 21:53:32.933,fcs_datactrl,0.0905,1.0000,0.80000.0500
2026-01-20 21:53:32.953,avoiflag,0,00
2026-01-20 21:53:32.974,fcs_datafutaba,0,0,0,000
2026-01-20 21:53:32.995,fcs_line_aim2ab
2026-01-20 21:53:33.017,fcs_line_ab
2026-01-20 21:53:33.038,fcs_param
2026-01-20 21:53:33.059,fcs_esc,0,0,0,0,00,0,0,0,0,00,0,0,0,0,00
2026-01-20 21:53:33.181,fcs_pwms,8,1544.5597743069168,1521.8692458345329,1473.3860485001424,1505.529233316493,1494.5046005330562,1588.6297477185922,1553.8822817506657,1499.3071554289577
2026-01-20 21:53:33.204,fcs_states,0.000000,0.000000,0.00,0.00,0.000.00,0.00,0.000.00,0.00,0.000.00
2026-01-20 21:53:33.225,fcs_datactrl,0.0964,1.0000,0.80000.0500
2026-01-20 21:53:33.248,avoiflag,0,00
2026-01-20 21:53:33.267,fcs_datafutaba,0,0,0,000
2026-01-20 21:53:33.288,fcs_line_aim2ab
2026-01-20 21:53:33.310,fcs_line_ab
2026-01-20 21:53:33.333,fcs_param
2026-01-20 21:53:33.354,fcs_esc,0,0,0,0,00,0,0,0,0,00,0,0,0,0,00
2026-01-20 21:53:33.473,fcs_pwms,8,1515.3293600945262,1442.3463250728375,1544.530161886949,1433.940945989791,1408.5285370774216,1529.9598740150668,1435.0777933334814,1562.958430095074
2026-01-20 21:53:33.496,fcs_states,0.000000,0.000000,0.00,0.00,0.000.00,0.00,0.000.00,0.00,0.000.00
2026-01-20 21:53:33.520,fcs_datactrl,0.1001,1.0000,0.80000.0500
2026-01-20 21:53:33.539,avoiflag,0,00
2026-01-20 21:53:33.560,fcs_datafutaba,0,0,0,000
2026-01-20 21:53:33.582,fcs_line_aim2ab
2026-01-20 21:53:33.603,fcs_line_ab
2026-01-20 21:53:33.623,fcs_param
2026-01-20 21:53:33.646,fcs_esc,0,0,0,0,00,0,0,0,0,00,0,0,0,0,00
2026-01-20 21:53:33.767,fcs_pwms,8,1554.4109031795151,1576.2461196631573,1524.2501653286702,1541.8944011580465,1416.6901279424364,1598.4866146929792,1469.247162676571,1441.0664489061273
2026-01-20 21:53:33.789,fcs_states,0.000000,0.000000,0.00,0.00,0.000.00,0.00,0.000.00,0.00,0.000.00
2026-01-20 21:53:33.813,fcs_datactrl,0.0973,1.0000,0.80000.0500
2026-01-20 21:53:33.836,avoiflag,0,00
2026-01-20 21:53:33.865,fcs_datafutaba,0,0,0,000
2026-01-20 21:53:33.886,fcs_line_aim2ab
2026-01-20 21:53:33.907,fcs_line_ab
2026-01-20 21:53:33.931,fcs_param
2026-01-20 21:53:33.950,fcs_esc,0,0,0,0,00,0,0,0,0,00,0,0,0,0,00
2026-01-20 21:53:34.073,fcs_pwms,8,1565.5696585356168,1447.039764740668,1509.9205723847388,1533.6200670427208,1581.0027290112866,1568.674821764223,1403.6366450226258,1445.3403697562806
2026-01-20 21:53:34.094,fcs_states,0.000000,0.000000,0.00,0.00,0.000.00,0.00,0.000.00,0.00,0.000.00
2026-01-20 21:53:34.116,fcs_datactrl,0.1044,1.0000,0.80000.0500
2026-01-20 21:53:34.137,avoiflag,0,00
2026-01-20 21:53:34.159,fcs_datafutaba,0,0,0,000
2026-01-20 21:53:34.181,fcs_line_aim2ab
2026-01-20 21:53:34.201,fcs_line_ab
2026-01-20 21:53:34.223,fcs_param
2026-01-20 21:53:34.245,fcs_esc,0,0,0,0,00,0,0,0,0,00,0,0,0,0,00
2026-01-20 21:53:34.366,fcs_pwms,8,1400.4263112167548,1589.6429631959682,1521.996957331521,1579.4305721994567,1540.1101891786661,1455.887992912316,1401.3263672442538,1453.622378116703
2026-01-20 21:53:34.390,fcs_states,0.000000,0.000000,0.00,0.00,0.000.00,0.00,0.000.00,0.00,0.000.00
2026-01-20 21:53:34.413,fcs_datactrl,0.1066,1.0000,0.80000.0500
2026-01-20 21:53:34.433,avoiflag,0,00
2026-01-20 21:53:34.457,fcs_datafutaba,0,0,0,000
2026-01-20 21:53:34.477,fcs_line_aim2ab
2026-01-20 21:53:34.498,fcs_line_ab
2026-01-20 21:53:34.519,fcs_param
2026-01-20 21:53:34.541,fcs_esc,0,0,0,0,00,0,0,0,0,00,0,0,0,0,00
2026-01-20 21:53:34.661,fcs_pwms,8,1549.5111790619371,1544.8486194068716,1559.6472346313574,1508.5027982764268,1578.3598839963747,1560.3761305397472,1555.8431337708691,1556.628744657711
2026-01-20 21:53:34.683,fcs_states,0.000000,0.000000,0.00,0.00,0.000.00,0.00,0.000.00,0.00,0.000.00
2026-01-20 21:53:34.705,fcs_datactrl,0.1055,1.0000,0.80000.0500
2026-01-20 21:53:34.726,avoiflag,0,00
2026-01-20 21:53:34.748,fcs_datafutaba,0,0,0,000
2026-01-20 21:53:34.769,fcs_line_aim2ab
2026-01-20 21:53:34.792,fcs_line_ab
2026-01-20 21:53:34.813,fcs_param
2026-01-20 21:53:34.835,fcs_esc,0,0,0,0,00,0,0,0,0,00,0,0,0,0,00
2026-01-20 21:53:34.957,fcs_pwms,8,1514.8127144106513,1435.3189795998987,1469.520392656291,1486.6136595286875,1481.0467871272015,1551.3739014280745,1490.5110464891989,1535.0689685458747
2026-01-20 21:53:34.981,fcs_states,0.000000,0.000000,0.00,0.00,0.000.00,0.00,0.000.00,0.00,0.000.00
2026-01-20 21:53:35.001,fcs_datactrl,0.0971,1.0000,0.80000.0500
2026-01-20 21:53:35.022,avoiflag,0,00
2026-01-20 21:53:35.044,fcs_datafutaba,0,0,0,000
2026-01-20 21:53:35.065,fcs_line_aim2ab
2026-01-20 21:53:35.088,fcs_line_ab
2026-01-20 21:53:35.109,fcs_param
2026-01-20 21:53:35.131,fcs_esc,0,0,0,0,00,0,0,0,0,00,0,0,0,0,00
2026-01-20 21:53:35.250,fcs_pwms,8,1423.4329274387635,1418.3519179738037,1466.0544373598168,1412.8619622314588,1569.3579871338636,1491.8205882463833,1414.4787006861575,1560.9354153822362
2026-01-20 21:53:35.272,fcs_states,0.000000,0.000000,0.00,0.00,0.000.00,0.00,0.000.00,0.00,0.000.00
2026-01-20 21:53:35.296,fcs_datactrl,0.1053,1.0000,0.80000.0500
2026-01-20 21:53:35.313,avoiflag,0,00
2026-01-20 21:53:35.335,fcs_datafutaba,0,0,0,000
2026-01-20 21:53:35.356,fcs_line_aim2ab
2026-01-20 21:53:35.377,fcs_line_ab
2026-01-20 21:53:35.399,fcs_param
2026-01-20 21:53:35.419,fcs_esc,0,0,0,0,00,0,0,0,0,00,0,0,0,0,00
2026-01-20 21:53:35.541,fcs_pwms,8,1566.6243166128982,1523.5011252195147,1493.6711814710447,1483.5408644643642,1597.2019196960441,1483.224231883173,1585.9101854396295,1586.5797416735265
2026-01-20 21:53:35.560,fcs_states,0.000000,0.000000,0.00,0.00,0.000.00,0.00,0.000.00,0.00,0.000.00
2026-01-20 21:53:35.582,fcs_datactrl,0.1069,1.0000,0.80000.0500
2026-01-20 21:53:35.603,avoiflag,0,00
2026-01-20 21:53:35.624,fcs_datafutaba,0,0,0,000
2026-01-20 21:53:35.646,fcs_line_aim2ab
2026-01-20 21:53:35.666,fcs_line_ab
2026-01-20 21:53:35.689,fcs_param
2026-01-20 21:53:35.710,fcs_esc,0,0,0,0,00,0,0,0,0,00,0,0,0,0,00
2026-01-20 21:53:35.830,fcs_pwms,8,1524.4876013105647,1410.0533129801825,1519.5204856336202,1469.213842304288,1591.20732106206,1454.002503317701,1594.7303415780166,1506.382223062229
2026-01-20 21:53:35.852,fcs_states,0.000000,0.000000,0.00,0.00,0.000.00,0.00,0.000.00,0.00,0.000.00
2026-01-20 21:53:35.877,fcs_datactrl,0.0954,1.0000,0.80000.0500
2026-01-20 21:53:35.895,avoiflag,0,00
2026-01-20 21:53:35.920,fcs_datafutaba,0,0,0,000
2026-01-20 21:53:35.942,fcs_line_aim2ab
2026-01-20 21:53:35.963,fcs_line_ab
2026-01-20 21:53:35.986,fcs_param
2026-01-20 21:53:36.004,fcs_esc,0,0,0,0,00,0,0,0,0,00,0,0,0,0,00
2026-01-20 21:53:36.126,fcs_pwms,8,1440.8907826707991,1576.4438680626918,1444.6265080936694,1554.8828238710814,1538.3723145661306,1463.1469507421266,1465.0128599325312,1583.7844329373472
2026-01-20 21:53:36.149,fcs_states,0.000000,0.000000,0.00,0.00,0.000.00,0.00,0.000.00,0.00,0.000.00
2026-01-20 21:53:36.172,fcs_datactrl,0.1043,1.0000,0.80000.0500
2026-01-20 21:53:36.192,avoiflag,0,00
2026-01-20 21:53:36.213,fcs_datafutaba,0,0,0,000
2026-01-20 21:53:36.234,fcs_line_aim2ab
2026-01-20 21:53:36.256,fcs_line_ab
2026-01-20 21:53:36.277,fcs_param
2026-01-20 21:53:36.297,fcs_esc,0,0,0,0,00,0,0,0,0,00,0,0,0,0,00
2026-01-20 21:53:36.418,fcs_pwms,8,1413.4226909652964,1481.036934302027,1419.5211964521563,1432.86898570679,1414.7862165555632,1500.2596556756064,1563.2524571749905,1521.0286102488608
2026-01-20 21:53:36.440,fcs_states,0.000000,0.000000,0.00,0.00,0.000.00,0.00,0.000.00,0.00,0.000.00
2026-01-20 21:53:36.466,fcs_datactrl,0.0973,1.0000,0.80000.0500
2026-01-20 21:53:36.483,avoiflag,0,00
2026-01-20 21:53:36.503,fcs_datafutaba,0,0,0,000
2026-01-20 21:53:36.524,fcs_line_aim2ab
2026-01-20 21:53:36.545,fcs_line_ab
2026-01-20 21:53:36.566,fcs_param
2026-01-20 21:53:36.587,fcs_esc,0,0,0,0,00,0,0,0,0,00,0,0,0,0,00
2026-01-20 21:53:36.711,fcs_pwms,8,1471.956434535871,1402.4007804145538,1582.075708918258,1501.9393238655891,1596.3497486768624,1484.5666711310516,1483.6493748308071,1555.3240724973118
2026-01-20 21:53:36.733,fcs_states,0.000000,0.000000,0.00,0.00,0.000.00,0.00,0.000.00,0.00,0.000.00
2026-01-20 21:53:36.755,fcs_datactrl,0.0925,1.0000,0.80000.0500
2026-01-20 21:53:36.775,avoiflag,0,00
2026-01-20 21:53:36.795,fcs_datafutaba,0,0,0,000
2026-01-20 21:53:36.818,fcs_line_aim2ab
2026-01-20 21:53:36.840,fcs_line_ab
2026-01-20 21:53:36.859,fcs_param
2026-01-20 21:53:36.881,fcs_esc,0,0,0,0,00,0,0,0,0,00,0,0,0,0,00
2026-01-20 21:53:37.003,fcs_pwms,8,1464.3385039630825,1461.902836938357,1540.866942794328,1531.1321692899767,1512.8943426147239,1474.168845331276,1417.2173995295618,1586.98387410889
2026-01-20 21:53:37.024,fcs_states,0.000000,0.000000,0.00,0.00,0.000.00,0.00,0.000.00,0.00,0.000.00
2026-01-20 21:53:37.048,fcs_datactrl,0.0969,1.0000,0.80000.0500
2026-01-20 21:53:37.066,avoiflag,0,00
2026-01-20 21:53:37.087,fcs_datafutaba,0,0,0,000
2026-01-20 21:53:37.109,fcs_line_aim2ab
2026-01-20 21:53:37.133,fcs_line_ab
2026-01-20 21:53:37.151,fcs_param
2026-01-20 21:53:37.173,fcs_esc,0,0,0,0,00,0,0,0,0,00,0,0,0,0,00
2026-01-20 21:53:37.294,fcs_pwms,8,1568.6593206365055,1497.624280705511,1472.771323849365,1422.6365613799464,1558.821515230039,1596.7233156055904,1442.105769506268,1540.7910065956771
2026-01-20 21:53:37.317,fcs_states,0.000000,0.000000,0.00,0.00,0.000.00,0.00,0.000.00,0.00,0.000.00
2026-01-20 21:53:37.338,fcs_datactrl,0.1049,1.0000,0.80000.0500
2026-01-20 21:53:37.359,avoiflag,0,00
2026-01-20 21:53:37.381,fcs_datafutaba,0,0,0,000
2026-01-20 21:53:37.402,fcs_line_aim2ab
2026-01-20 21:53:37.422,fcs_line_ab
2026-01-20 21:53:37.447,fcs_param
2026-01-20 21:53:37.467,fcs_esc,0,0,0,0,00,0,0,0,0,00,0,0,0,0,00
2026-01-20 21:53:37.589,fcs_pwms,8,1525.2589768466337,1535.6986185883106,1551.4189805981227,1501.280591544961,1544.8589997826327,1554.3764662245542,1474.2569886737135,1428.992734467238
2026-01-20 21:53:37.617,fcs_states,0.000000,0.000000,0.00,0.00,0.000.00,0.00,0.000.00,0.00,0.000.00
2026-01-20 21:53:37.638,fcs_datactrl,0.1081,1.0000,0.80000.0500
2026-01-20 21:53:37.656,avoiflag,0,00
2026-01-20 21:53:37.681,fcs_datafutaba,0,0,0,000
2026-01-20 21:53:37.704,fcs_line_aim2ab
2026-01-20 21:53:37.726,fcs_line_ab
2026-01-20 21:53:37.745,fcs_param
2026-01-20 21:53:37.767,fcs_esc,0,0,0,0,00,0,0,0,0,00,0,0,0,0,00
2026-01-20 21:53:37.891,fcs_pwms,8,1519.5119086385912,1565.451626637792,1518.4508542022113,1586.4540707415667,1566.3300276926639,1582.212679189144,1541.4938429685803,1591.1333203098272
2026-01-20 21:53:37.908,fcs_states,0.000000,0.000000,0.00,0.00,0.000.00,0.00,0.000.00,0.00,0.000.00
2026-01-20 21:53:37.934,fcs_datactrl,0.1010,1.0000,0.80000.0500
2026-01-20 21:53:37.953,avoiflag,0,00
2026-01-20 21:53:37.974,fcs_datafutaba,0,0,0,000
2026-01-20 21:53:37.993,fcs_line_aim2ab
2026-01-20 21:53:38.014,fcs_line_ab
2026-01-20 21:53:38.035,fcs_param
2026-01-20 21:53:38.057,fcs_esc,0,0,0,0,00,0,0,0,0,00,0,0,0,0,00
2026-01-20 21:53:38.179,fcs_pwms,8,1521.7258280917804,1459.7988410854637,1507.490463124348,1539.8762602783333,1520.75383014302,1429.5906931838579,1443.3817831410113,1583.8028755922453
2026-01-20 21:53:38.203,fcs_states,0.000000,0.000000,0.00,0.00,0.000.00,0.00,0.000.00,0.00,0.000.00
2026-01-20 21:53:38.221,fcs_datactrl,0.1049,1.0000,0.80000.0500
2026-01-20 21:53:38.243,avoiflag,0,00
2026-01-20 21:53:38.265,fcs_datafutaba,0,0,0,000
2026-01-20 21:53:38.288,fcs_line_aim2ab
2026-01-20 21:53:38.311,fcs_line_ab
2026-01-20 21:53:38.329,fcs_param
2026-01-20 21:53:38.355,fcs_esc,0,0,0,0,00,0,0,0,0,00,0,0,0,0,00
2026-01-20 21:53:38.475,fcs_pwms,8,1594.8806967813841,1497.5632010121785,1479.6834679442345,1558.8539267626295,1477.6325118900222,1574.3408164397117,1518.1314313854446,1452.2140739816373
2026-01-20 21:53:38.500,fcs_states,0.000000,0.000000,0.00,0.00,0.000.00,0.00,0.000.00,0.00,0.000.00
2026-01-20 21:53:38.520,fcs_datactrl,0.0949,1.0000,0.80000.0500
2026-01-20 21:53:38.540,avoiflag,0,00
2026-01-20 21:53:38.562,fcs_datafutaba,0,0,0,000
2026-01-20 21:53:38.584,fcs_line_aim2ab
2026-01-20 21:53:38.605,fcs_line_ab
2026-01-20 21:53:38.627,fcs_param
2026-01-20 21:53:38.649,fcs_esc,0,0,0,0,00,0,0,0,0,00,0,0,0,0,00
2026-01-20 21:53:38.768,fcs_pwms,8,1453.9265281879916,1424.2350374043194,1429.7131184184605,1598.2668529046798,1553.7051505732168,1550.6464292619037,1544.708086945154,1515.8579857449804
2026-01-20 21:53:38.791,fcs_states,0.000000,0.000000,0.00,0.00,0.000.00,0.00,0.000.00,0.00,0.000.00
2026-01-20 21:53:38.810,fcs_datactrl,0.0930,1.0000,0.80000.0500
2026-01-20 21:53:38.833,avoiflag,0,00
2026-01-20 21:53:38.853,fcs_datafutaba,0,0,0,000
2026-01-20 21:53:38.874,fcs_line_aim2ab
2026-01-20 21:53:38.900,fcs_line_ab
2026-01-20 21:53:38.916,fcs_param
2026-01-20 21:53:38.939,fcs_esc,0,0,0,0,00,0,0,0,0,00,0,0,0,0,00
2026-01-20 21:53:39.058,fcs_pwms,8,1445.3104662076894,1571.3456662854476,1492.100157182206,1489.5464172640436,1438.9680506210466,1506.5481530720822,1446.731145389254,1554.1359965851411
2026-01-20 21:53:39.086,fcs_states,0.000000,0.000000,0.00,0.00,0.000.00,0.00,0.000.00,0.00,0.000.00
2026-01-20 21:53:39.100,fcs_datactrl,0.0950,1.0000,0.80000.0500
2026-01-20 21:53:39.122,avoiflag,0,00
2026-01-20 21:53:39.144,fcs_datafutaba,0,0,0,000
2026-01-20 21:53:39.166,fcs_line_aim2ab
2026-01-20 21:53:39.183,fcs_line_ab
2026-01-20 21:53:39.207,fcs_param
2026-01-20 21:53:39.229,fcs_esc,0,0,0,0,00,0,0,0,0,00,0,0,0,0,00
2026-01-20 21:53:39.353,fcs_pwms,8,1556.8106339772864,1469.5156523140422,1484.2086114223093,1540.5476549030293,1542.4639491740834,1488.625371373946,1573.6736780146312,1537.136015508674
2026-01-20 21:53:39.372,fcs_states,0.000000,0.000000,0.00,0.00,0.000.00,0.00,0.000.00,0.00,0.000.00
2026-01-20 21:53:39.393,fcs_datactrl,0.1013,1.0000,0.80000.0500
2026-01-20 21:53:39.414,avoiflag,0,00
2026-01-20 21:53:39.434,fcs_datafutaba,0,0,0,000
2026-01-20 21:53:39.456,fcs_line_aim2ab
2026-01-20 21:53:39.479,fcs_line_ab
2026-01-20 21:53:39.503,fcs_param
2026-01-20 21:53:39.521,fcs_esc,0,0,0,0,00,0,0,0,0,00,0,0,0,0,00
2026-01-20 21:53:39.641,fcs_pwms,8,1471.793375819629,1508.7620942805747,1464.3453147415676,1563.2204042555727,1433.4351393836362,1578.4584721662743,1466.5709330762547,1563.8945899069638
2026-01-20 21:53:39.665,fcs_states,0.000000,0.000000,0.00,0.00,0.000.00,0.00,0.000.00,0.00,0.000.00
2026-01-20 21:53:39.686,fcs_datactrl,0.0978,1.0000,0.80000.0500
2026-01-20 21:53:39.707,avoiflag,0,00
2026-01-20 21:53:39.727,fcs_datafutaba,0,0,0,000
2026-01-20 21:53:39.750,fcs_line_aim2ab
2026-01-20 21:53:39.770,fcs_line_ab
2026-01-20 21:53:39.790,fcs_param
2026-01-20 21:53:39.812,fcs_esc,0,0,0,0,00,0,0,0,0,00,0,0,0,0,00
2026-01-20 21:53:39.935,fcs_pwms,8,1418.0697881027486,1597.8881610436838,1559.48043430906,1549.076956899449,1527.1533034879187,1508.9142177937056,1457.5500981923096,1405.6333809365071
2026-01-20 21:53:39.958,fcs_states,0.000000,0.000000,0.00,0.00,0.000.00,0.00,0.000.00,0.00,0.000.00
2026-01-20 21:53:39.979,fcs_datactrl,0.0908,1.0000,0.80000.0500
2026-01-20 21:53:39.998,avoiflag,0,00
2026-01-20 21:53:40.019,fcs_datafutaba,0,0,0,000
2026-01-20 21:53:40.040,fcs_line_aim2ab
2026-01-20 21:53:40.064,fcs_line_ab
2026-01-20 21:53:40.083,fcs_param
2026-01-20 21:53:40.105,fcs_esc,0,0,0,0,00,0,0,0,0,00,0,0,0,0,00
2026-01-20 21:53:40.225,fcs_pwms,8,1546.4435939186967,1524.2371138432482,1501.122905476965,1578.3461472543677,1587.2757027513578,1564.4385107264172,1507.525368098087,1598.8969145883284
2026-01-20 21:53:40.250,fcs_states,0.000000,0.000000,0.00,0.00,0.000.00,0.00,0.000.00,0.00,0.000.00
2026-01-20 21:53:40.270,fcs_datactrl,0.0949,1.0000,0.80000.0500
2026-01-20 21:53:40.289,avoiflag,0,00
2026-01-20 21:53:40.312,fcs_datafutaba,0,0,0,000
2026-01-20 21:53:40.335,fcs_line_aim2ab
2026-01-20 21:53:40.356,fcs_line_ab
2026-01-20 21:53:40.378,fcs_param
2026-01-20 21:53:40.397,fcs_esc,0,0,0,0,00,0,0,0,0,00,0,0,0,0,00
2026-01-20 21:53:40.519,fcs_pwms,8,1573.602465578036,1441.2817690271793,1539.8547398010878,1424.5346746104997,1434.7151693733927,1559.1266785010803,1500.1430183690177,1517.3266883802278
2026-01-20 21:53:40.544,fcs_states,0.000000,0.000000,0.00,0.00,0.000.00,0.00,0.000.00,0.00,0.000.00
2026-01-20 21:53:40.563,fcs_datactrl,0.1031,1.0000,0.80000.0500
2026-01-20 21:53:40.586,avoiflag,0,00
2026-01-20 21:53:40.606,fcs_datafutaba,0,0,0,000
2026-01-20 21:53:40.628,fcs_line_aim2ab
2026-01-20 21:53:40.650,fcs_line_ab
2026-01-20 21:53:40.699,fcs_param
2026-01-20 21:53:40.729,fcs_esc,0,0,0,0,00,0,0,0,0,00,0,0,0,0,00
2026-01-20 21:53:40.841,fcs_pwms,8,1475.7092101722756,1593.7456505376294,1445.9556378339983,1594.75294282038,1540.231604788221,1544.7569547198657,1598.0884542997496,1517.1919647035827
2026-01-20 21:53:40.877,fcs_states,0.000000,0.000000,0.00,0.00,0.000.00,0.00,0.000.00,0.00,0.000.00
2026-01-20 21:53:40.892,fcs_datactrl,0.1008,1.0000,0.80000.0500
2026-01-20 21:53:40.908,avoiflag,0,00
2026-01-20 21:53:40.955,fcs_datafutaba,0,0,0,000
2026-01-20 21:53:40.963,fcs_line_aim2ab
2026-01-20 21:53:40.981,fcs_line_ab
2026-01-20 21:53:41.002,fcs_param
2026-01-20 21:53:41.027,fcs_esc,0,0,0,0,00,0,0,0,0,00,0,0,0,0,00
2026-01-20 21:53:41.149,fcs_pwms,8,1402.166978275042,1598.0948986245958,1427.7909600937608,1457.2449058463649,1486.2585364682668,1517.9087801945298,1566.6471332220005,1454.2996334433594
2026-01-20 21:53:41.172,fcs_states,0.000000,0.000000,0.00,0.00,0.000.00,0.00,0.000.00,0.00,0.000.00
2026-01-20 21:53:41.193,fcs_datactrl,0.1090,1.0000,0.80000.0500
2026-01-20 21:53:41.214,avoiflag,0,00
2026-01-20 21:53:41.236,fcs_datafutaba,0,0,0,000
2026-01-20 21:53:41.259,fcs_line_aim2ab
2026-01-20 21:53:41.280,fcs_line_ab
2026-01-20 21:53:41.303,fcs_param
2026-01-20 21:53:41.325,fcs_esc,0,0,0,0,00,0,0,0,0,00,0,0,0,0,00
2026-01-20 21:53:41.445,fcs_pwms,8,1531.0930818733386,1489.9838423057852,1546.4032071517656,1478.525119636094,1556.6507108507462,1454.4261736101505,1412.8356127388145,1427.859794642425
2026-01-20 21:53:41.469,fcs_states,0.000000,0.000000,0.00,0.00,0.000.00,0.00,0.000.00,0.00,0.000.00
2026-01-20 21:53:41.490,fcs_datactrl,0.1040,1.0000,0.80000.0500
2026-01-20 21:53:41.512,avoiflag,0,00
2026-01-20 21:53:41.533,fcs_datafutaba,0,0,0,000
2026-01-20 21:53:41.553,fcs_line_aim2ab
2026-01-20 21:53:41.576,fcs_line_ab
2026-01-20 21:53:41.597,fcs_param
2026-01-20 21:53:41.619,fcs_esc,0,0,0,0,00,0,0,0,0,00,0,0,0,0,00
2026-01-20 21:53:41.741,fcs_pwms,8,1536.3203228268114,1553.0593691599645,1481.7511836217873,1442.5842109892346,1555.0068189455772,1425.7253889999427,1528.5958253802457,1455.3302766090692
2026-01-20 21:53:41.764,fcs_states,0.000000,0.000000,0.00,0.00,0.000.00,0.00,0.000.00,0.00,0.000.00
2026-01-20 21:53:41.784,fcs_datactrl,0.1054,1.0000,0.80000.0500
2026-01-20 21:53:41.807,avoiflag,0,00
2026-01-20 21:53:41.829,fcs_datafutaba,0,0,0,000
2026-01-20 21:53:41.852,fcs_line_aim2ab
2026-01-20 21:53:41.873,fcs_line_ab
2026-01-20 21:53:41.893,fcs_param
2026-01-20 21:53:41.915,fcs_esc,0,0,0,0,00,0,0,0,0,00,0,0,0,0,00
2026-01-20 21:53:42.037,fcs_pwms,8,1576.6413852792518,1448.0353467919274,1458.8774453088909,1567.2394274061085,1457.8390070857988,1445.5201251136118,1443.5936627595713,1411.2690108351467
2026-01-20 21:53:42.059,fcs_states,0.000000,0.000000,0.00,0.00,0.000.00,0.00,0.000.00,0.00,0.000.00
2026-01-20 21:53:42.081,fcs_datactrl,0.0997,1.0000,0.80000.0500
2026-01-20 21:53:42.104,avoiflag,0,00
2026-01-20 21:53:42.126,fcs_datafutaba,0,0,0,000
2026-01-20 21:53:42.147,fcs_line_aim2ab
2026-01-20 21:53:42.166,fcs_line_ab
2026-01-20 21:53:42.189,fcs_param
2026-01-20 21:53:42.210,fcs_esc,0,0,0,0,00,0,0,0,0,00,0,0,0,0,00
2026-01-20 21:53:42.332,fcs_pwms,8,1590.3461571388502,1531.0531363423688,1561.2626268513252,1512.6122881282654,1447.0641978489025,1407.6842255131842,1556.5940815446643,1471.4557036191593
2026-01-20 21:53:42.357,fcs_states,0.000000,0.000000,0.00,0.00,0.000.00,0.00,0.000.00,0.00,0.000.00
2026-01-20 21:53:42.377,fcs_datactrl,0.1005,1.0000,0.80000.0500
2026-01-20 21:53:42.399,avoiflag,0,00
2026-01-20 21:53:42.424,fcs_datafutaba,0,0,0,000
2026-01-20 21:53:42.442,fcs_line_aim2ab
2026-01-20 21:53:42.463,fcs_line_ab
2026-01-20 21:53:42.486,fcs_param
2026-01-20 21:53:42.507,fcs_esc,0,0,0,0,00,0,0,0,0,00,0,0,0,0,00
2026-01-20 21:53:42.629,fcs_pwms,8,1536.4655756838786,1432.433411443449,1520.4572562859103,1420.633711726308,1437.6998131552314,1442.7563178173862,1422.5106154051118,1528.0762778100711
2026-01-20 21:53:42.650,fcs_states,0.000000,0.000000,0.00,0.00,0.000.00,0.00,0.000.00,0.00,0.000.00
2026-01-20 21:53:42.673,fcs_datactrl,0.0989,1.0000,0.80000.0500
2026-01-20 21:53:42.693,avoiflag,0,00
2026-01-20 21:53:42.715,fcs_datafutaba,0,0,0,000
2026-01-20 21:53:42.738,fcs_line_aim2ab
2026-01-20 21:53:42.760,fcs_line_ab
2026-01-20 21:53:42.780,fcs_param
2026-01-20 21:53:42.803,fcs_esc,0,0,0,0,00,0,0,0,0,00,0,0,0,0,00
2026-01-20 21:53:42.922,fcs_pwms,8,1479.2231545595698,1480.5559562614028,1578.2512090295006,1459.1667657276394,1530.5658330609394,1529.861018002564,1461.469771413525,1471.8913958371597
2026-01-20 21:53:42.945,fcs_states,0.000000,0.000000,0.00,0.00,0.000.00,0.00,0.000.00,0.00,0.000.00
2026-01-20 21:53:42.966,fcs_datactrl,0.0971,1.0000,0.80000.0500
2026-01-20 21:53:42.988,avoiflag,0,00
2026-01-20 21:53:43.010,fcs_datafutaba,0,0,0,000
2026-01-20 21:53:43.031,fcs_line_aim2ab
2026-01-20 21:53:43.054,fcs_line_ab
2026-01-20 21:53:43.075,fcs_param
2026-01-20 21:53:43.096,fcs_esc,0,0,0,0,00,0,0,0,0,00,0,0,0,0,00
2026-01-20 21:53:43.217,fcs_pwms,8,1504.130338827411,1567.8901056165805,1446.6205282052983,1557.1257776327293,1491.337308912959,1531.5053683153328,1575.8800870856223,1446.6473169608337
2026-01-20 21:53:43.239,fcs_states,0.000000,0.000000,0.00,0.00,0.000.00,0.00,0.000.00,0.00,0.000.00
2026-01-20 21:53:43.261,fcs_datactrl,0.1040,1.0000,0.80000.0500
2026-01-20 21:53:43.282,avoiflag,0,00
2026-01-20 21:53:43.305,fcs_datafutaba,0,0,0,000
2026-01-20 21:53:43.325,fcs_line_aim2ab
2026-01-20 21:53:43.349,fcs_line_ab
2026-01-20 21:53:43.368,fcs_param
2026-01-20 21:53:43.393,fcs_esc,0,0,0,0,00,0,0,0,0,00,0,0,0,0,00
2026-01-20 21:53:43.514,fcs_pwms,8,1446.5698195217392,1412.027857393444,1474.6021439894344,1438.694734594763,1598.8636783167171,1524.4650115349423,1498.2446263628256,1422.2909003137295
2026-01-20 21:53:43.534,fcs_states,0.000000,0.000000,0.00,0.00,0.000.00,0.00,0.000.00,0.00,0.000.00
2026-01-20 21:53:43.557,fcs_datactrl,0.1015,1.0000,0.80000.0500
2026-01-20 21:53:43.579,avoiflag,0,00
2026-01-20 21:53:43.600,fcs_datafutaba,0,0,0,000
2026-01-20 21:53:43.621,fcs_line_aim2ab
2026-01-20 21:53:43.644,fcs_line_ab
2026-01-20 21:53:43.667,fcs_param
2026-01-20 21:53:43.688,fcs_esc,0,0,0,0,00,0,0,0,0,00,0,0,0,0,00
2026-01-20 21:53:43.810,fcs_pwms,8,1527.7985046432336,1552.7738511423436,1432.2358286712254,1548.204423533813,1510.0397321897392,1460.1170702502645,1553.2873985100794,1591.0954946771026
2026-01-20 21:53:43.833,fcs_states,0.000000,0.000000,0.00,0.00,0.000.00,0.00,0.000.00,0.00,0.000.00
2026-01-20 21:53:43.855,fcs_datactrl,0.0987,1.0000,0.80000.0500
2026-01-20 21:53:43.875,avoiflag,0,00
2026-01-20 21:53:43.897,fcs_datafutaba,0,0,0,000
2026-01-20 21:53:43.921,fcs_line_aim2ab
2026-01-20 21:53:43.943,fcs_line_ab
2026-01-20 21:53:43.965,fcs_param
2026-01-20 21:53:43.985,fcs_esc,0,0,0,0,00,0,0,0,0,00,0,0,0,0,00
2026-01-20 21:53:44.107,fcs_pwms,8,1475.8946485661081,1511.0753055299758,1493.253504248322,1441.9451654924521,1458.9723549360997,1414.2434706216516,1590.297766380993,1481.0411799680573
2026-01-20 21:53:44.130,fcs_states,0.000000,0.000000,0.00,0.00,0.000.00,0.00,0.000.00,0.00,0.000.00
2026-01-20 21:53:44.151,fcs_datactrl,0.1022,1.0000,0.80000.0500
2026-01-20 21:53:44.173,avoiflag,0,00
2026-01-20 21:53:44.195,fcs_datafutaba,0,0,0,000
2026-01-20 21:53:44.219,fcs_line_aim2ab
2026-01-20 21:53:44.240,fcs_line_ab
2026-01-20 21:53:44.262,fcs_param
2026-01-20 21:53:44.283,fcs_esc,0,0,0,0,00,0,0,0,0,00,0,0,0,0,00
2026-01-20 21:53:44.404,fcs_pwms,8,1455.8954395893234,1487.5268248651496,1414.9823220139672,1588.3636177213602,1499.370548429425,1425.075939420042,1445.5627466175467,1522.6238510264668
2026-01-20 21:53:44.427,fcs_states,0.000000,0.000000,0.00,0.00,0.000.00,0.00,0.000.00,0.00,0.000.00
2026-01-20 21:53:44.447,fcs_datactrl,0.1054,1.0000,0.80000.0500
2026-01-20 21:53:44.467,avoiflag,0,00
2026-01-20 21:53:44.490,fcs_datafutaba,0,0,0,000
2026-01-20 21:53:44.510,fcs_line_aim2ab
2026-01-20 21:53:44.532,fcs_line_ab
2026-01-20 21:53:44.552,fcs_param
2026-01-20 21:53:44.575,fcs_esc,0,0,0,0,00,0,0,0,0,00,0,0,0,0,00
2026-01-20 21:53:44.706,fcs_pwms,8,1594.2108618067302,1416.8487901209944,1441.3883723146096,1526.5872515960343,1531.2146096556824,1550.1782498996563,1558.7305337653304,1525.131899503113
2026-01-20 21:53:44.731,fcs_states,0.000000,0.000000,0.00,0.00,0.000.00,0.00,0.000.00,0.00,0.000.00
2026-01-20 21:53:44.753,fcs_datactrl,0.1086,1.0000,0.80000.0500
2026-01-20 21:53:44.769,avoiflag,0,00
2026-01-20 21:53:44.793,fcs_datafutaba,0,0,0,000
2026-01-20 21:53:44.815,fcs_line_aim2ab
2026-01-20 21:53:44.835,fcs_line_ab
2026-01-20 21:53:44.856,fcs_param
2026-01-20 21:53:44.877,fcs_esc,0,0,0,0,00,0,0,0,0,00,0,0,0,0,00
2026-01-20 21:53:44.999,fcs_pwms,8,1551.0642082406841,1542.706486009797,1518.6526173646641,1556.2634158387632,1442.843844118275,1466.4189127600637,1573.8632980683344,1474.8653349832682
2026-01-20 21:53:45.025,fcs_states,0.000000,0.000000,0.00,0.00,0.000.00,0.00,0.000.00,0.00,0.000.00
2026-01-20 21:53:45.046,fcs_datactrl,0.0987,1.0000,0.80000.0500
2026-01-20 21:53:45.066,avoiflag,0,00
2026-01-20 21:53:45.085,fcs_datafutaba,0,0,0,000
2026-01-20 21:53:45.107,fcs_line_aim2ab
2026-01-20 21:53:45.129,fcs_line_ab
2026-01-20 21:53:45.154,fcs_param
2026-01-20 21:53:45.173,fcs_esc,0,0,0,0,00,0,0,0,0,00,0,0,0,0,00
2026-01-20 21:53:45.294,fcs_pwms,8,1429.9972294003182,1518.0623511630029,1599.440943279977,1401.2425351752709,1410.9770448504291,1585.3309519168502,1462.0859701640438,1515.2528596703846
2026-01-20 21:53:45.316,fcs_states,0.000000,0.000000,0.00,0.00,0.000.00,0.00,0.000.00,0.00,0.000.00
2026-01-20 21:53:45.339,fcs_datactrl,0.1096,1.0000,0.80000.0500
2026-01-20 21:53:45.366,avoiflag,0,00
2026-01-20 21:53:45.381,fcs_datafutaba,0,0,0,000
2026-01-20 21:53:45.400,fcs_line_aim2ab
2026-01-20 21:53:45.422,fcs_line_ab
2026-01-20 21:53:45.444,fcs_param
2026-01-20 21:53:45.466,fcs_esc,0,0,0,0,00,0,0,0,0,00,0,0,0,0,00
2026-01-20 21:53:45.587,fcs_pwms,8,1583.8069165937318,1455.3353295960555,1447.2897559968792,1445.0506965242218,1406.3521189965525,1561.336723438437,1451.1334229806173,1567.8220590529636
2026-01-20 21:53:45.612,fcs_states,0.000000,0.000000,0.00,0.00,0.000.00,0.00,0.000.00,0.00,0.000.00
2026-01-20 21:53:45.633,fcs_datactrl,0.0950,1.0000,0.80000.0500
2026-01-20 21:53:45.655,avoiflag,0,00
2026-01-20 21:53:45.676,fcs_datafutaba,0,0,0,000
2026-01-20 21:53:45.698,fcs_line_aim2ab
2026-01-20 21:53:45.719,fcs_line_ab
2026-01-20 21:53:45.738,fcs_param
2026-01-20 21:53:45.762,fcs_esc,0,0,0,0,00,0,0,0,0,00,0,0,0,0,00
2026-01-20 21:53:45.884,fcs_pwms,8,1462.6223758129406,1532.2800019887616,1488.8653012833404,1471.4514246247475,1487.292214210159,1577.340757976201,1590.9076154618342,1579.7283921728138
2026-01-20 21:53:45.905,fcs_states,0.000000,0.000000,0.00,0.00,0.000.00,0.00,0.000.00,0.00,0.000.00
2026-01-20 21:53:45.926,fcs_datactrl,0.0982,1.0000,0.80000.0500
2026-01-20 21:53:45.948,avoiflag,0,00
2026-01-20 21:53:45.970,fcs_datafutaba,0,0,0,000
2026-01-20 21:53:45.991,fcs_line_aim2ab
2026-01-20 21:53:46.012,fcs_line_ab
2026-01-20 21:53:46.033,fcs_param
2026-01-20 21:53:46.054,fcs_esc,0,0,0,0,00,0,0,0,0,00,0,0,0,0,00
2026-01-20 21:53:46.174,fcs_pwms,8,1400.4515674664574,1414.862074983956,1452.1312261020826,1457.7996548450462,1575.325781659813,1473.1370045718506,1405.7823940940787,1448.7108267297142
2026-01-20 21:53:46.198,fcs_states,0.000000,0.000000,0.00,0.00,0.000.00,0.00,0.000.00,0.00,0.000.00
2026-01-20 21:53:46.220,fcs_datactrl,0.0921,1.0000,0.80000.0500
2026-01-20 21:53:46.243,avoiflag,0,00
2026-01-20 21:53:46.263,fcs_datafutaba,0,0,0,000
2026-01-20 21:53:46.285,fcs_line_aim2ab
2026-01-20 21:53:46.307,fcs_line_ab
2026-01-20 21:53:46.326,fcs_param
2026-01-20 21:53:46.349,fcs_esc,0,0,0,0,00,0,0,0,0,00,0,0,0,0,00
2026-01-20 21:53:46.469,fcs_pwms,8,1463.831611298907,1410.0311943522302,1543.4036112933013,1426.8761800145396,1543.8061385821475,1477.8249000326064,1436.9528108961704,1464.6321984219778
2026-01-20 21:53:46.492,fcs_states,0.000000,0.000000,0.00,0.00,0.000.00,0.00,0.000.00,0.00,0.000.00
2026-01-20 21:53:46.514,fcs_datactrl,0.0954,1.0000,0.80000.0500
2026-01-20 21:53:46.535,avoiflag,0,00
2026-01-20 21:53:46.557,fcs_datafutaba,0,0,0,000
2026-01-20 21:53:46.579,fcs_line_aim2ab
2026-01-20 21:53:46.602,fcs_line_ab
2026-01-20 21:53:46.622,fcs_param
2026-01-20 21:53:46.645,fcs_esc,0,0,0,0,00,0,0,0,0,00,0,0,0,0,00
2026-01-20 21:53:46.766,fcs_pwms,8,1482.5646873503686,1426.2291700985845,1550.3785363402421,1582.8231689688837,1595.015599228283,1429.0981953784215,1427.4619707543588,1448.1195597126723
2026-01-20 21:53:46.787,fcs_states,0.000000,0.000000,0.00,0.00,0.000.00,0.00,0.000.00,0.00,0.000.00
2026-01-20 21:53:46.810,fcs_datactrl,0.0960,1.0000,0.80000.0500
2026-01-20 21:53:46.831,avoiflag,0,00
2026-01-20 21:53:46.853,fcs_datafutaba,0,0,0,000
2026-01-20 21:53:46.877,fcs_line_aim2ab
2026-01-20 21:53:46.895,fcs_line_ab
2026-01-20 21:53:46.918,fcs_param
2026-01-20 21:53:46.939,fcs_esc,0,0,0,0,00,0,0,0,0,00,0,0,0,0,00
2026-01-20 21:53:47.061,fcs_pwms,8,1466.4396048947842,1481.8653206496458,1459.9987322736636,1588.7597973766613,1541.7739997876124,1507.7712755787772,1545.2577383567786,1446.624745040222
2026-01-20 21:53:47.084,fcs_states,0.000000,0.000000,0.00,0.00,0.000.00,0.00,0.000.00,0.00,0.000.00
2026-01-20 21:53:47.103,fcs_datactrl,0.1061,1.0000,0.80000.0500
2026-01-20 21:53:47.126,avoiflag,0,00
2026-01-20 21:53:47.147,fcs_datafutaba,0,0,0,000
2026-01-20 21:53:47.168,fcs_line_aim2ab
2026-01-20 21:53:47.192,fcs_line_ab
2026-01-20 21:53:47.212,fcs_param
2026-01-20 21:53:47.233,fcs_esc,0,0,0,0,00,0,0,0,0,00,0,0,0,0,00
2026-01-20 21:53:47.355,fcs_pwms,8,1518.8779637837943,1525.8835390576562,1415.5316872831165,1451.4673908632826,1565.0310410158854,1438.033820821397,1434.1266839506943,1509.4737772946837
2026-01-20 21:53:47.377,fcs_states,0.000000,0.000000,0.00,0.00,0.000.00,0.00,0.000.00,0.00,0.000.00
2026-01-20 21:53:47.399,fcs_datactrl,0.0952,1.0000,0.80000.0500
2026-01-20 21:53:47.421,avoiflag,0,00
2026-01-20 21:53:47.443,fcs_datafutaba,0,0,0,000
2026-01-20 21:53:47.465,fcs_line_aim2ab
2026-01-20 21:53:47.485,fcs_line_ab
2026-01-20 21:53:47.509,fcs_param
2026-01-20 21:53:47.532,fcs_esc,0,0,0,0,00,0,0,0,0,00,0,0,0,0,00
2026-01-20 21:53:47.651,fcs_pwms,8,1524.693632175468,1410.2691390464693,1469.7495330054298,1464.4484642474586,1465.0089173441604,1513.3057794182073,1563.0414443246343,1443.6580771539448
2026-01-20 21:53:47.673,fcs_states,0.000000,0.000000,0.00,0.00,0.000.00,0.00,0.000.00,0.00,0.000.00
2026-01-20 21:53:47.695,fcs_datactrl,0.1085,1.0000,0.80000.0500
2026-01-20 21:53:47.716,avoiflag,0,00
2026-01-20 21:53:47.737,fcs_datafutaba,0,0,0,000
2026-01-20 21:53:47.760,fcs_line_aim2ab
2026-01-20 21:53:47.783,fcs_line_ab
2026-01-20 21:53:47.802,fcs_param
2026-01-20 21:53:47.825,fcs_esc,0,0,0,0,00,0,0,0,0,00,0,0,0,0,00
2026-01-20 21:53:47.947,fcs_pwms,8,1442.5458387434262,1534.3091753925664,1460.7817765633301,1407.1733447797935,1457.2042647888147,1568.8801962178209,1548.313916605519,1451.3853223951023
2026-01-20 21:53:47.968,fcs_states,0.000000,0.000000,0.00,0.00,0.000.00,0.00,0.000.00,0.00,0.000.00
2026-01-20 21:53:47.991,fcs_datactrl,0.1010,1.0000,0.80000.0500
2026-01-20 21:53:48.013,avoiflag,0,00
2026-01-20 21:53:48.035,fcs_datafutaba,0,0,0,000
2026-01-20 21:53:48.058,fcs_line_aim2ab
2026-01-20 21:53:48.078,fcs_line_ab
2026-01-20 21:53:48.099,fcs_param
2026-01-20 21:53:48.120,fcs_esc,0,0,0,0,00,0,0,0,0,00,0,0,0,0,00
2026-01-20 21:53:48.241,fcs_pwms,8,1471.6821721655904,1571.9321867353767,1568.2398401329315,1449.8485226733976,1456.83063123781,1567.2971886527203,1543.0650810264738,1516.0427369322972
2026-01-20 21:53:48.263,fcs_states,0.000000,0.000000,0.00,0.00,0.000.00,0.00,0.000.00,0.00,0.000.00
2026-01-20 21:53:48.299,fcs_datactrl,0.1052,1.0000,0.80000.0500
2026-01-20 21:53:48.316,avoiflag,0,00
2026-01-20 21:53:48.332,fcs_datafutaba,0,0,0,000
2026-01-20 21:53:48.351,fcs_line_aim2ab
2026-01-20 21:53:48.374,fcs_line_ab
2026-01-20 21:53:48.395,fcs_param
2026-01-20 21:53:48.427,fcs_esc,0,0,0,0,00,0,0,0,0,00,0,0,0,0,00
2026-01-20 21:53:48.543,fcs_pwms,8,1556.4193540906656,1429.9980330431797,1587.1423940762938,1402.3600395796961,1532.9873806849932,1479.1443542679392,1465.7114518834755,1433.8229423836551
2026-01-20 21:53:48.570,fcs_states,0.000000,0.000000,0.00,0.00,0.000.00,0.00,0.000.00,0.00,0.000.00
2026-01-20 21:53:48.591,fcs_datactrl,0.1098,1.0000,0.80000.0500
2026-01-20 21:53:48.610,avoiflag,0,00
2026-01-20 21:53:48.632,fcs_datafutaba,0,0,0,000
2026-01-20 21:53:48.675,fcs_line_aim2ab
2026-01-20 21:53:48.680,fcs_line_ab
2026-01-20 21:53:48.700,fcs_param
2026-01-20 21:53:48.720,fcs_esc,0,0,0,0,00,0,0,0,0,00,0,0,0,0,00
2026-01-20 21:53:48.844,fcs_pwms,8,1465.3023322175168,1540.6179152661125,1454.2576731273418,1409.0660873092813,1552.261577600035,1453.0355740936031,1414.3978175030186,1447.657273883196
2026-01-20 21:53:48.866,fcs_states,0.000000,0.000000,0.00,0.00,0.000.00,0.00,0.000.00,0.00,0.000.00
2026-01-20 21:53:48.887,fcs_datactrl,0.1081,1.0000,0.80000.0500
2026-01-20 21:53:48.907,avoiflag,0,00
2026-01-20 21:53:48.930,fcs_datafutaba,0,0,0,000
2026-01-20 21:53:48.951,fcs_line_aim2ab
2026-01-20 21:53:48.973,fcs_line_ab
2026-01-20 21:53:48.994,fcs_param
2026-01-20 21:53:49.016,fcs_esc,0,0,0,0,00,0,0,0,0,00,0,0,0,0,00
2026-01-20 21:53:49.137,fcs_pwms,8,1549.4696741120877,1555.0733241617627,1422.9118152553535,1426.7442727253458,1580.8183189338008,1446.915475022468,1595.7771028953885,1491.9157293222643
2026-01-20 21:53:49.159,fcs_states,0.000000,0.000000,0.00,0.00,0.000.00,0.00,0.000.00,0.00,0.000.00
2026-01-20 21:53:49.181,fcs_datactrl,0.1030,1.0000,0.80000.0500
2026-01-20 21:53:49.201,avoiflag,0,00
2026-01-20 21:53:49.223,fcs_datafutaba,0,0,0,000
2026-01-20 21:53:49.245,fcs_line_aim2ab
2026-01-20 21:53:49.268,fcs_line_ab
2026-01-20 21:53:49.288,fcs_param
2026-01-20 21:53:49.309,fcs_esc,0,0,0,0,00,0,0,0,0,00,0,0,0,0,00
2026-01-20 21:53:49.430,fcs_pwms,8,1402.7223075351674,1513.8796093669164,1445.6323584295633,1472.5933050677195,1438.7741846926206,1581.453069872764,1425.9521721518272,1553.965732179131
2026-01-20 21:53:49.452,fcs_states,0.000000,0.000000,0.00,0.00,0.000.00,0.00,0.000.00,0.00,0.000.00
2026-01-20 21:53:49.474,fcs_datactrl,0.1019,1.0000,0.80000.0500
2026-01-20 21:53:49.495,avoiflag,0,00
2026-01-20 21:53:49.517,fcs_datafutaba,0,0,0,000
2026-01-20 21:53:49.538,fcs_line_aim2ab
2026-01-20 21:53:49.559,fcs_line_ab
2026-01-20 21:53:49.582,fcs_param
2026-01-20 21:53:49.603,fcs_esc,0,0,0,0,00,0,0,0,0,00,0,0,0,0,00
2026-01-20 21:53:49.725,fcs_pwms,8,1554.8095055872816,1427.5749477886054,1548.910513340041,1496.3571925637978,1571.5307684197758,1469.219158809974,1468.4832964066331,1420.4296671194916
2026-01-20 21:53:49.746,fcs_states,0.000000,0.000000,0.00,0.00,0.000.00,0.00,0.000.00,0.00,0.000.00
2026-01-20 21:53:49.767,fcs_datactrl,0.0978,1.0000,0.80000.0500
2026-01-20 21:53:49.788,avoiflag,0,00
2026-01-20 21:53:49.810,fcs_datafutaba,0,0,0,000
2026-01-20 21:53:49.830,fcs_line_aim2ab
2026-01-20 21:53:49.853,fcs_line_ab
2026-01-20 21:53:49.874,fcs_param
2026-01-20 21:53:49.895,fcs_esc,0,0,0,0,00,0,0,0,0,00,0,0,0,0,00
2026-01-20 21:53:50.016,fcs_pwms,8,1429.9580396436104,1565.699806141281,1433.622707571939,1507.9515433300855,1469.2979105377556,1536.954201533414,1559.547335698575,1414.5324526075099
2026-01-20 21:53:50.038,fcs_states,0.000000,0.000000,0.00,0.00,0.000.00,0.00,0.000.00,0.00,0.000.00
2026-01-20 21:53:50.060,fcs_datactrl,0.1073,1.0000,0.80000.0500
2026-01-20 21:53:50.081,avoiflag,0,00
2026-01-20 21:53:50.104,fcs_datafutaba,0,0,0,000
2026-01-20 21:53:50.123,fcs_line_aim2ab
2026-01-20 21:53:50.147,fcs_line_ab
2026-01-20 21:53:50.169,fcs_param
2026-01-20 21:53:50.193,fcs_esc,0,0,0,0,00,0,0,0,0,00,0,0,0,0,00
2026-01-20 21:53:50.313,fcs_pwms,8,1480.771688361086,1492.3826373226361,1514.3816059758233,1502.4862306126079,1477.8785423237216,1556.2284040639552,1428.8742172543064,1401.3529895344768
2026-01-20 21:53:50.335,fcs_states,0.000000,0.000000,0.00,0.00,0.000.00,0.00,0.000.00,0.00,0.000.00
2026-01-20 21:53:50.356,fcs_datactrl,0.1050,1.0000,0.80000.0500
2026-01-20 21:53:50.378,avoiflag,0,00
2026-01-20 21:53:50.399,fcs_datafutaba,0,0,0,000
2026-01-20 21:53:50.420,fcs_line_aim2ab
2026-01-20 21:53:50.442,fcs_line_ab
2026-01-20 21:53:50.464,fcs_param
2026-01-20 21:53:50.485,fcs_esc,0,0,0,0,00,0,0,0,0,00,0,0,0,0,00
2026-01-20 21:53:50.606,fcs_pwms,8,1531.7004104367393,1479.6474982461068,1475.3426480315184,1417.735407345638,1502.6177050941074,1492.0837732217171,1595.8292248785829,1479.8997172257746
2026-01-20 21:53:50.627,fcs_states,0.000000,0.000000,0.00,0.00,0.000.00,0.00,0.000.00,0.00,0.000.00
2026-01-20 21:53:50.648,fcs_datactrl,0.0910,1.0000,0.80000.0500
2026-01-20 21:53:50.670,avoiflag,0,00
2026-01-20 21:53:50.692,fcs_datafutaba,0,0,0,000
2026-01-20 21:53:50.713,fcs_line_aim2ab
2026-01-20 21:53:50.733,fcs_line_ab
2026-01-20 21:53:50.756,fcs_param
2026-01-20 21:53:50.776,fcs_esc,0,0,0,0,00,0,0,0,0,00,0,0,0,0,00
2026-01-20 21:53:50.897,fcs_pwms,8,1499.2247984933456,1416.787492834944,1584.28243661826,1506.684680995002,1487.9428426440525,1543.561940993614,1552.382798592882,1552.7835148413108
2026-01-20 21:53:50.920,fcs_states,0.000000,0.000000,0.00,0.00,0.000.00,0.00,0.000.00,0.00,0.000.00
2026-01-20 21:53:50.942,fcs_datactrl,0.1082,1.0000,0.80000.0500
2026-01-20 21:53:50.963,avoiflag,0,00
2026-01-20 21:53:50.983,fcs_datafutaba,0,0,0,000
2026-01-20 21:53:51.005,fcs_line_aim2ab
2026-01-20 21:53:51.026,fcs_line_ab
2026-01-20 21:53:51.047,fcs_param
2026-01-20 21:53:51.068,fcs_esc,0,0,0,0,00,0,0,0,0,00,0,0,0,0,00
2026-01-20 21:53:51.191,fcs_pwms,8,1460.6523231179283,1584.2625763411795,1570.618265072553,1425.6945066233138,1530.6105888217312,1576.1441269472168,1441.3427097461938,1585.096914709732
2026-01-20 21:53:51.213,fcs_states,0.000000,0.000000,0.00,0.00,0.000.00,0.00,0.000.00,0.00,0.000.00
2026-01-20 21:53:51.234,fcs_datactrl,0.0971,1.0000,0.80000.0500
2026-01-20 21:53:51.255,avoiflag,0,00
2026-01-20 21:53:51.276,fcs_datafutaba,0,0,0,000
2026-01-20 21:53:51.297,fcs_line_aim2ab
2026-01-20 21:53:51.320,fcs_line_ab
2026-01-20 21:53:51.338,fcs_param
2026-01-20 21:53:51.359,fcs_esc,0,0,0,0,00,0,0,0,0,00,0,0,0,0,00
2026-01-20 21:53:51.482,fcs_pwms,8,1446.8953540354914,1584.3571700933837,1565.1144294977457,1465.8095507097441,1574.9540846025552,1442.5425970565366,1544.259238444963,1404.2568155825322
2026-01-20 21:53:51.503,fcs_states,0.000000,0.000000,0.00,0.00,0.000.00,0.00,0.000.00,0.00,0.000.00
2026-01-20 21:53:51.526,fcs_datactrl,0.0941,1.0000,0.80000.0500
2026-01-20 21:53:51.547,avoiflag,0,00
2026-01-20 21:53:51.568,fcs_datafutaba,0,0,0,000
2026-01-20 21:53:51.591,fcs_line_aim2ab
2026-01-20 21:53:51.612,fcs_line_ab
2026-01-20 21:53:51.633,fcs_param
2026-01-20 21:53:51.654,fcs_esc,0,0,0,0,00,0,0,0,0,00,0,0,0,0,00
2026-01-20 21:53:51.776,fcs_pwms,8,1553.109832008329,1456.5660925116188,1584.950880353643,1497.3426615060166,1523.0404911166015,1418.3095863894443,1573.913735961809,1580.720106518411
2026-01-20 21:53:51.796,fcs_states,0.000000,0.000000,0.00,0.00,0.000.00,0.00,0.000.00,0.00,0.000.00
2026-01-20 21:53:51.819,fcs_datactrl,0.1003,1.0000,0.80000.0500
2026-01-20 21:53:51.841,avoiflag,0,00
2026-01-20 21:53:51.863,fcs_datafutaba,0,0,0,000
2026-01-20 21:53:51.887,fcs_line_aim2ab
2026-01-20 21:53:51.906,fcs_line_ab
2026-01-20 21:53:51.927,fcs_param
2026-01-20 21:53:51.948,fcs_esc,0,0,0,0,00,0,0,0,0,00,0,0,0,0,00
2026-01-20 21:53:52.069,fcs_pwms,8,1422.66298004649,1505.9817109645223,1543.2826462710696,1567.7482865185614,1468.494291445886,1499.0229828944457,1541.697078611272,1471.5359581856942
2026-01-20 21:53:52.092,fcs_states,0.000000,0.000000,0.00,0.00,0.000.00,0.00,0.000.00,0.00,0.000.00
2026-01-20 21:53:52.113,fcs_datactrl,0.0935,1.0000,0.80000.0500
2026-01-20 21:53:52.136,avoiflag,0,00
2026-01-20 21:53:52.156,fcs_datafutaba,0,0,0,000
2026-01-20 21:53:52.177,fcs_line_aim2ab
2026-01-20 21:53:52.200,fcs_line_ab
2026-01-20 21:53:52.222,fcs_param
2026-01-20 21:53:52.244,fcs_esc,0,0,0,0,00,0,0,0,0,00,0,0,0,0,00
2026-01-20 21:53:52.364,fcs_pwms,8,1401.6987789446118,1554.3993159059264,1506.842890501285,1405.8060166335638,1510.8307244535865,1549.5982245711125,1452.1463891429376,1583.942052532136
2026-01-20 21:53:52.386,fcs_states,0.000000,0.000000,0.00,0.00,0.000.00,0.00,0.000.00,0.00,0.000.00
2026-01-20 21:53:52.408,fcs_datactrl,0.1030,1.0000,0.80000.0500
2026-01-20 21:53:52.429,avoiflag,0,00
2026-01-20 21:53:52.470,fcs_datafutaba,0,0,0,000
2026-01-20 21:53:52.481,fcs_line_aim2ab
2026-01-20 21:53:52.496,fcs_line_ab
2026-01-20 21:53:52.523,fcs_param
2026-01-20 21:53:52.550,fcs_esc,0,0,0,0,00,0,0,0,0,00,0,0,0,0,00
2026-01-20 21:53:52.667,fcs_pwms,8,1491.8134918261605,1530.6042724937972,1595.525235226462,1487.889306912356,1532.768288354956,1431.7637138887364,1595.3823196962367,1460.4908798522733
2026-01-20 21:53:52.690,fcs_states,0.000000,0.000000,0.00,0.00,0.000.00,0.00,0.000.00,0.00,0.000.00
2026-01-20 21:53:52.711,fcs_datactrl,0.1000,1.0000,0.80000.0500
2026-01-20 21:53:52.733,avoiflag,0,00
2026-01-20 21:53:52.754,fcs_datafutaba,0,0,0,000
2026-01-20 21:53:52.776,fcs_line_aim2ab
2026-01-20 21:53:52.797,fcs_line_ab
2026-01-20 21:53:52.821,fcs_param
2026-01-20 21:53:52.842,fcs_esc,0,0,0,0,00,0,0,0,0,00,0,0,0,0,00
2026-01-20 21:53:52.963,fcs_pwms,8,1433.480657838863,1503.934289539974,1410.6314789793244,1497.4529057440184,1531.2141406195178,1592.0425866012704,1478.3098455951726,1410.2124400478035
2026-01-20 21:53:52.984,fcs_states,0.000000,0.000000,0.00,0.00,0.000.00,0.00,0.000.00,0.00,0.000.00
2026-01-20 21:53:53.005,fcs_datactrl,0.0939,1.0000,0.80000.0500
2026-01-20 21:53:53.028,avoiflag,0,00
2026-01-20 21:53:53.047,fcs_datafutaba,0,0,0,000
2026-01-20 21:53:53.070,fcs_line_aim2ab
2026-01-20 21:53:53.092,fcs_line_ab
2026-01-20 21:53:53.113,fcs_param
2026-01-20 21:53:53.136,fcs_esc,0,0,0,0,00,0,0,0,0,00,0,0,0,0,00
2026-01-20 21:53:53.257,fcs_pwms,8,1564.2567928113874,1401.5704279895551,1542.7700617392045,1531.9873477461244,1462.933461895233,1532.3492536679653,1581.5545623346716,1445.0224452141258
2026-01-20 21:53:53.280,fcs_states,0.000000,0.000000,0.00,0.00,0.000.00,0.00,0.000.00,0.00,0.000.00
2026-01-20 21:53:53.302,fcs_datactrl,0.1070,1.0000,0.80000.0500
2026-01-20 21:53:53.324,avoiflag,0,00
2026-01-20 21:53:53.345,fcs_datafutaba,0,0,0,000
2026-01-20 21:53:53.367,fcs_line_aim2ab
2026-01-20 21:53:53.388,fcs_line_ab
2026-01-20 21:53:53.409,fcs_param
2026-01-20 21:53:53.432,fcs_esc,0,0,0,0,00,0,0,0,0,00,0,0,0,0,00
2026-01-20 21:53:53.553,fcs_pwms,8,1537.1142619154198,1544.8939086064042,1413.9890175046792,1552.043714487207,1490.748114952355,1466.2163392146258,1512.2308223327864,1401.0370325407314
2026-01-20 21:53:53.577,fcs_states,0.000000,0.000000,0.00,0.00,0.000.00,0.00,0.000.00,0.00,0.000.00
2026-01-20 21:53:53.596,fcs_datactrl,0.0951,1.0000,0.80000.0500
2026-01-20 21:53:53.618,avoiflag,0,00
2026-01-20 21:53:53.640,fcs_datafutaba,0,0,0,000
2026-01-20 21:53:53.663,fcs_line_aim2ab
2026-01-20 21:53:53.683,fcs_line_ab
2026-01-20 21:53:53.705,fcs_param
2026-01-20 21:53:53.727,fcs_esc,0,0,0,0,00,0,0,0,0,00,0,0,0,0,00
2026-01-20 21:53:53.848,fcs_pwms,8,1477.2789801332228,1467.7406017367243,1453.0485367311578,1402.0923877037985,1409.7001755445008,1489.4186120169495,1412.537069043862,1427.728787073153
2026-01-20 21:53:53.870,fcs_states,0.000000,0.000000,0.00,0.00,0.000.00,0.00,0.000.00,0.00,0.000.00
2026-01-20 21:53:53.892,fcs_datactrl,0.1011,1.0000,0.80000.0500
2026-01-20 21:53:53.913,avoiflag,0,00
2026-01-20 21:53:53.936,fcs_datafutaba,0,0,0,000
2026-01-20 21:53:53.956,fcs_line_aim2ab
2026-01-20 21:53:53.978,fcs_line_ab
2026-01-20 21:53:53.999,fcs_param
2026-01-20 21:53:54.020,fcs_esc,0,0,0,0,00,0,0,0,0,00,0,0,0,0,00
2026-01-20 21:53:54.141,fcs_pwms,8,1566.5660570197554,1560.1885612747942,1556.2309260425316,1571.3423569447261,1534.456371213488,1546.6325502962795,1496.8223938766973,1561.2052429293951
2026-01-20 21:53:54.165,fcs_states,0.000000,0.000000,0.00,0.00,0.000.00,0.00,0.000.00,0.00,0.000.00
2026-01-20 21:53:54.188,fcs_datactrl,0.1074,1.0000,0.80000.0500
2026-01-20 21:53:54.208,avoiflag,0,00
2026-01-20 21:53:54.230,fcs_datafutaba,0,0,0,000
2026-01-20 21:53:54.255,fcs_line_aim2ab
2026-01-20 21:53:54.273,fcs_line_ab
2026-01-20 21:53:54.295,fcs_param
2026-01-20 21:53:54.317,fcs_esc,0,0,0,0,00,0,0,0,0,00,0,0,0,0,00
2026-01-20 21:53:54.438,fcs_pwms,8,1550.5507856145514,1500.5972783650739,1496.577375736978,1508.558584372682,1463.827831121198,1522.0995329590678,1414.2641016342895,1484.3362776877711
2026-01-20 21:53:54.460,fcs_states,0.000000,0.000000,0.00,0.00,0.000.00,0.00,0.000.00,0.00,0.000.00
2026-01-20 21:53:54.482,fcs_datactrl,0.1075,1.0000,0.80000.0500
2026-01-20 21:53:54.505,avoiflag,0,00
2026-01-20 21:53:54.527,fcs_datafutaba,0,0,0,000
2026-01-20 21:53:54.547,fcs_line_aim2ab
2026-01-20 21:53:54.569,fcs_line_ab
2026-01-20 21:53:54.590,fcs_param
2026-01-20 21:53:54.612,fcs_esc,0,0,0,0,00,0,0,0,0,00,0,0,0,0,00
2026-01-20 21:53:54.734,fcs_pwms,8,1510.9723202245762,1453.9378632031774,1436.3778433816447,1557.7439169904692,1441.007338312079,1591.0058587461094,1423.5538098267236,1564.814281711561
2026-01-20 21:53:54.756,fcs_states,0.000000,0.000000,0.00,0.00,0.000.00,0.00,0.000.00,0.00,0.000.00
2026-01-20 21:53:54.778,fcs_datactrl,0.1091,1.0000,0.80000.0500
2026-01-20 21:53:54.799,avoiflag,0,00
2026-01-20 21:53:54.822,fcs_datafutaba,0,0,0,000
2026-01-20 21:53:54.842,fcs_line_aim2ab
2026-01-20 21:53:54.863,fcs_line_ab
2026-01-20 21:53:54.886,fcs_param
2026-01-20 21:53:54.907,fcs_esc,0,0,0,0,00,0,0,0,0,00,0,0,0,0,00
2026-01-20 21:53:55.029,fcs_pwms,8,1526.158689603353,1433.3153308024134,1492.186590803211,1447.3380264337145,1581.022165270318,1576.2787304166989,1495.6207140851704,1440.3383830192506
2026-01-20 21:53:55.051,fcs_states,0.000000,0.000000,0.00,0.00,0.000.00,0.00,0.000.00,0.00,0.000.00
2026-01-20 21:53:55.072,fcs_datactrl,0.0994,1.0000,0.80000.0500
2026-01-20 21:53:55.095,avoiflag,0,00
2026-01-20 21:53:55.115,fcs_datafutaba,0,0,0,000
2026-01-20 21:53:55.138,fcs_line_aim2ab
2026-01-20 21:53:55.158,fcs_line_ab
2026-01-20 21:53:55.180,fcs_param
2026-01-20 21:53:55.203,fcs_esc,0,0,0,0,00,0,0,0,0,00,0,0,0,0,00
2026-01-20 21:53:55.323,fcs_pwms,8,1427.0220702093018,1518.4142636906527,1488.7881269600582,1520.9241680394928,1446.5664786212933,1496.0896987252672,1502.3986324130344,1467.678392439809
2026-01-20 21:53:55.344,fcs_states,0.000000,0.000000,0.00,0.00,0.000.00,0.00,0.000.00,0.00,0.000.00
2026-01-20 21:53:55.367,fcs_datactrl,0.1073,1.0000,0.80000.0500
2026-01-20 21:53:55.388,avoiflag,0,00
2026-01-20 21:53:55.410,fcs_datafutaba,0,0,0,000
2026-01-20 21:53:55.433,fcs_line_aim2ab
2026-01-20 21:53:55.454,fcs_line_ab
2026-01-20 21:53:55.477,fcs_param
2026-01-20 21:53:55.498,fcs_esc,0,0,0,0,00,0,0,0,0,00,0,0,0,0,00
2026-01-20 21:53:55.619,fcs_pwms,8,1477.2841793502917,1574.0518936410742,1555.6788604283638,1594.5239764640082,1474.8182582245195,1560.0544718221204,1519.5723667795107,1460.5265280175997
2026-01-20 21:53:55.643,fcs_states,0.000000,0.000000,0.00,0.00,0.000.00,0.00,0.000.00,0.00,0.000.00
2026-01-20 21:53:55.663,fcs_datactrl,0.1046,1.0000,0.80000.0500
2026-01-20 21:53:55.684,avoiflag,0,00
2026-01-20 21:53:55.706,fcs_datafutaba,0,0,0,000
2026-01-20 21:53:55.726,fcs_line_aim2ab
2026-01-20 21:53:55.746,fcs_line_ab
2026-01-20 21:53:55.770,fcs_param
2026-01-20 21:53:55.792,fcs_esc,0,0,0,0,00,0,0,0,0,00,0,0,0,0,00
2026-01-20 21:53:55.915,fcs_pwms,8,1454.859302068109,1496.0741436180078,1506.868024933562,1547.6233700516614,1459.2016705807494,1598.3841043478587,1524.852953761973,1584.7481892318863
2026-01-20 21:53:55.935,fcs_states,0.000000,0.000000,0.00,0.00,0.000.00,0.00,0.000.00,0.00,0.000.00
2026-01-20 21:53:55.958,fcs_datactrl,0.1029,1.0000,0.80000.0500
2026-01-20 21:53:55.979,avoiflag,0,00
2026-01-20 21:53:56.000,fcs_datafutaba,0,0,0,000
2026-01-20 21:53:56.022,fcs_line_aim2ab
2026-01-20 21:53:56.042,fcs_line_ab
2026-01-20 21:53:56.065,fcs_param
2026-01-20 21:53:56.085,fcs_esc,0,0,0,0,00,0,0,0,0,00,0,0,0,0,00
2026-01-20 21:53:56.208,fcs_pwms,8,1510.7448296565358,1497.3229332212754,1450.4623102579276,1581.3074589128123,1476.9701840239272,1458.664735090314,1440.4425807117502,1490.4683992383546
2026-01-20 21:53:56.229,fcs_states,0.000000,0.000000,0.00,0.00,0.000.00,0.00,0.000.00,0.00,0.000.00
2026-01-20 21:53:56.252,fcs_datactrl,0.0977,1.0000,0.80000.0500
2026-01-20 21:53:56.274,avoiflag,0,00
2026-01-20 21:53:56.296,fcs_datafutaba,0,0,0,000
2026-01-20 21:53:56.317,fcs_line_aim2ab
2026-01-20 21:53:56.337,fcs_line_ab
2026-01-20 21:53:56.358,fcs_param
2026-01-20 21:53:56.380,fcs_esc,0,0,0,0,00,0,0,0,0,00,0,0,0,0,00
2026-01-20 21:53:56.515,fcs_pwms,8,1402.7133430864167,1422.1637258768078,1406.4788305040797,1442.5682127651166,1549.177543175473,1408.1819614123283,1562.5273397667122,1460.917419162566
2026-01-20 21:53:56.525,fcs_states,0.000000,0.000000,0.00,0.00,0.000.00,0.00,0.000.00,0.00,0.000.00
2026-01-20 21:53:56.551,fcs_datactrl,0.1028,1.0000,0.80000.0500
2026-01-20 21:53:56.574,avoiflag,0,00
2026-01-20 21:53:56.595,fcs_datafutaba,0,0,0,000
2026-01-20 21:53:56.622,fcs_line_aim2ab
2026-01-20 21:53:56.639,fcs_line_ab
2026-01-20 21:53:56.661,fcs_param
2026-01-20 21:53:56.684,fcs_esc,0,0,0,0,00,0,0,0,0,00,0,0,0,0,00
2026-01-20 21:53:56.806,fcs_pwms,8,1413.6026292610081,1556.9987442658896,1420.8795259600408,1498.3501598131093,1561.030045750243,1461.771119347196,1444.391916225511,1559.8440770254
2026-01-20 21:53:56.828,fcs_states,0.000000,0.000000,0.00,0.00,0.000.00,0.00,0.000.00,0.00,0.000.00
2026-01-20 21:53:56.849,fcs_datactrl,0.1071,1.0000,0.80000.0500
2026-01-20 21:53:56.872,avoiflag,0,00
2026-01-20 21:53:56.893,fcs_datafutaba,0,0,0,000
2026-01-20 21:53:56.915,fcs_line_aim2ab
2026-01-20 21:53:56.937,fcs_line_ab
2026-01-20 21:53:56.959,fcs_param
2026-01-20 21:53:56.979,fcs_esc,0,0,0,0,00,0,0,0,0,00,0,0,0,0,00
2026-01-20 21:53:57.102,fcs_pwms,8,1459.2137270127273,1520.72665576714,1421.4390633596881,1498.5467480083382,1544.718210767069,1492.9128656088214,1478.056578299475,1575.1723496399036
2026-01-20 21:53:57.123,fcs_states,0.000000,0.000000,0.00,0.00,0.000.00,0.00,0.000.00,0.00,0.000.00
2026-01-20 21:53:57.146,fcs_datactrl,0.0919,1.0000,0.80000.0500
2026-01-20 21:53:57.165,avoiflag,0,00
2026-01-20 21:53:57.189,fcs_datafutaba,0,0,0,000
2026-01-20 21:53:57.211,fcs_line_aim2ab
2026-01-20 21:53:57.232,fcs_line_ab
2026-01-20 21:53:57.254,fcs_param
2026-01-20 21:53:57.279,fcs_esc,0,0,0,0,00,0,0,0,0,00,0,0,0,0,00
2026-01-20 21:53:57.396,fcs_pwms,8,1457.9301778019696,1553.9060327839331,1588.0058087184448,1513.0761823047858,1578.0167121700483,1494.2765048430485,1510.4096261384407,1544.8663909166135
2026-01-20 21:53:57.419,fcs_states,0.000000,0.000000,0.00,0.00,0.000.00,0.00,0.000.00,0.00,0.000.00
2026-01-20 21:53:57.441,fcs_datactrl,0.1036,1.0000,0.80000.0500
2026-01-20 21:53:57.463,avoiflag,0,00
2026-01-20 21:53:57.483,fcs_datafutaba,0,0,0,000
2026-01-20 21:53:57.505,fcs_line_aim2ab
2026-01-20 21:53:57.528,fcs_line_ab
2026-01-20 21:53:57.549,fcs_param
2026-01-20 21:53:57.570,fcs_esc,0,0,0,0,00,0,0,0,0,00,0,0,0,0,00
2026-01-20 21:53:57.691,fcs_pwms,8,1427.0349393610602,1453.9709942131747,1443.5551014794867,1482.1934156410869,1538.8799131106123,1448.274001724414,1554.6767786709925,1470.6320339843853
2026-01-20 21:53:57.714,fcs_states,0.000000,0.000000,0.00,0.00,0.000.00,0.00,0.000.00,0.00,0.000.00
2026-01-20 21:53:57.736,fcs_datactrl,0.0940,1.0000,0.80000.0500
2026-01-20 21:53:57.758,avoiflag,0,00
2026-01-20 21:53:57.777,fcs_datafutaba,0,0,0,000
2026-01-20 21:53:57.800,fcs_line_aim2ab
2026-01-20 21:53:57.822,fcs_line_ab
2026-01-20 21:53:57.843,fcs_param
2026-01-20 21:53:57.864,fcs_esc,0,0,0,0,00,0,0,0,0,00,0,0,0,0,00
2026-01-20 21:53:57.986,fcs_pwms,8,1447.3479509540073,1556.8905853191231,1571.8271102046806,1409.627303871351,1496.193162150887,1537.9225741727803,1576.5181797361874,1417.4939236715638
2026-01-20 21:53:58.010,fcs_states,0.000000,0.000000,0.00,0.00,0.000.00,0.00,0.000.00,0.00,0.000.00
2026-01-20 21:53:58.031,fcs_datactrl,0.0940,1.0000,0.80000.0500
2026-01-20 21:53:58.051,avoiflag,0,00
2026-01-20 21:53:58.075,fcs_datafutaba,0,0,0,000
2026-01-20 21:53:58.095,fcs_line_aim2ab
2026-01-20 21:53:58.116,fcs_line_ab
2026-01-20 21:53:58.139,fcs_param
2026-01-20 21:53:58.159,fcs_esc,0,0,0,0,00,0,0,0,0,00,0,0,0,0,00
2026-01-20 21:53:58.282,fcs_pwms,8,1569.8270180647478,1507.6880611058157,1407.593100277949,1593.948250463392,1414.2600231608017,1555.2583388465673,1497.933279611119,1518.9706835081904
2026-01-20 21:53:58.304,fcs_states,0.000000,0.000000,0.00,0.00,0.000.00,0.00,0.000.00,0.00,0.000.00
2026-01-20 21:53:58.326,fcs_datactrl,0.1083,1.0000,0.80000.0500
